{"success":true,"count":10,"results":[{"googlePlaceId":"ChIJ-ymWFwCjWjURxh_h5zyHSDM","name":"JoGeSaYu","address":"日本、〒730-0051 広島県広島市中区大手町２丁目７−１ 1F","rating":4.8,"userRatingsTotal":302,"latitude":34.3925093,"longitude":132.4563633},{"googlePlaceId":"ChIJhf38HgCjWjURFk_RUSHnfwc","name":"桂愛","address":"日本、〒730-0037 広島県広島市中区中町4−14−１０４ 1階","rating":4.9,"userRatingsTotal":201,"latitude":34.389961,"longitude":132.4593754},{"googlePlaceId":"ChIJpySROfijWjURLIxLPI_HldA","name":"ONE EARTH&lovefamcook","address":"日本、〒730-0029 広島県広島市中区三川町３−１４ ＰＡＬビル B1F","rating":4.8,"userRatingsTotal":87,"latitude":34.3909669,"longitude":132.4613817},{"googlePlaceId":"ChIJu78sbgCZWjURZcWAHmQShNk","name":"カフェラテ","address":"日本、〒730-0012 広島県広島市中区上八丁堀５−２７ アーバンビュー上八丁堀 1F","rating":4.9,"userRatingsTotal":176,"latitude":34.40011,"longitude":132.4639855},{"googlePlaceId":"ChIJFcJSmmuiWjURIfP9fedqskk","name":"オーティス","address":"日本、〒730-0812 広島県広島市中区加古町１−２０","rating":4.6,"userRatingsTotal":390,"latitude":34.388985,"longitude":132.4498347},{"googlePlaceId":"ChIJAQ7mK8mjWjURv41TMdjbPgY","name":"Namaste kumkum","address":"日本、〒730-0043 広島県広島市中区富士見町１１−３","rating":4.8,"userRatingsTotal":455,"latitude":34.386726,"longitude":132.4631999},{"googlePlaceId":"ChIJz5mPSACZWjURC2uW2p-IaBQ","name":"まいちえキッチン","address":"日本、〒733-0802 広島県広島市西区三滝本町２丁目１−８","rating":4.9,"userRatingsTotal":14,"latitude":34.4190762,"longitude":132.4491805},{"googlePlaceId":"ChIJK_Qno5uiWjUROHhkqqY9Fmc","name":"菜食健美 広島店","address":"日本、〒733-0815 広島県広島市西区己斐上４丁目３２−２","rating":3.8,"userRatingsTotal":120,"latitude":34.410107,"longitude":132.4202608},{"googlePlaceId":"ChIJOS8EzgCjWjURFER1y93CspQ","name":"ナチュラルキッチン シマカラ食堂","address":"日本、〒730-0811 広島県広島市中区中島町１０−１ 1F","rating":4.2,"userRatingsTotal":101,"latitude":34.3904025,"longitude":132.4493422},{"googlePlaceId":"ChIJB-bCuw6iWjURZ1DIvoqXvDs","name":"喫茶 さえき","address":"日本、〒730-0031 広島県広島市中区紙屋町１丁目４−２５","rating":4.2,"userRatingsTotal":358,"latitude":34.3943785,"longitude":132.4586294}]}